{
   "results" : [
      {
         "address_components" : [
            {
               "long_name" : "211",
               "short_name" : "211",
               "types" : [ "street_number" ]
            },
            {
               "long_name" : "North Maple Road",
               "short_name" : "N Maple Rd",
               "types" : [ "route" ]
            },
            {
               "long_name" : "Abbot",
               "short_name" : "Abbot",
               "types" : [ "neighborhood", "political" ]
            },
            {
               "long_name" : "Ann Arbor",
               "short_name" : "Ann Arbor",
               "types" : [ "locality", "political" ]
            },
            {
               "long_name" : "Washtenaw County",
               "short_name" : "Washtenaw County",
               "types" : [ "administrative_area_level_2", "political" ]
            },
            {
               "long_name" : "Michigan",
               "short_name" : "MI",
               "types" : [ "administrative_area_level_1", "political" ]
            },
            {
               "long_name" : "United States",
               "short_name" : "US",
               "types" : [ "country", "political" ]
            },
            {
               "long_name" : "48103",
               "short_name" : "48103",
               "types" : [ "postal_code" ]
            }
         ],
         "formatted_address" : "211 N Maple Rd, Ann Arbor, MI 48103, USA",
         "geometry" : {
            "location" : {
               "lat" : 42.28354460000001,
               "lng" : -83.7815686
            },
            "location_type" : "ROOFTOP",
            "viewport" : {
               "northeast" : {
                  "lat" : 42.28489358029151,
                  "lng" : -83.78021961970849
               },
               "southwest" : {
                  "lat" : 42.28219561970851,
                  "lng" : -83.7829175802915
               }
            }
         },
         "place_id" : "ChIJQ6JKN8CxPIgRE03H8WgLOkI",
         "types" : [ "street_address" ]
      },
      {
         "address_components" : [
            {
               "long_name" : "Abbot",
               "short_name" : "Abbot",
               "types" : [ "neighborhood", "political" ]
            },
            {
               "long_name" : "Ann Arbor",
               "short_name" : "Ann Arbor",
               "types" : [ "locality", "political" ]
            },
            {
               "long_name" : "Scio Township",
               "short_name" : "Scio Township",
               "types" : [ "administrative_area_level_3", "political" ]
            },
            {
               "long_name" : "Washtenaw County",
               "short_name" : "Washtenaw County",
               "types" : [ "administrative_area_level_2", "political" ]
            },
            {
               "long_name" : "Michigan",
               "short_name" : "MI",
               "types" : [ "administrative_area_level_1", "political" ]
            },
            {
               "long_name" : "United States",
               "short_name" : "US",
               "types" : [ "country", "political" ]
            },
            {
               "long_name" : "48103",
               "short_name" : "48103",
               "types" : [ "postal_code" ]
            }
         ],
         "formatted_address" : "Abbot, Ann Arbor, MI 48103, USA",
         "geometry" : {
            "bounds" : {
               "northeast" : {
                  "lat" : 42.30983699999999,
                  "lng" : -83.780041
               },
               "southwest" : {
                  "lat" : 42.280637,
                  "lng" : -83.8583431
               }
            },
            "location" : {
               "lat" : 42.293885,
               "lng" : -83.7856298
            },
            "location_type" : "APPROXIMATE",
            "viewport" : {
               "northeast" : {
                  "lat" : 42.30983699999999,
                  "lng" : -83.780041
               },
               "southwest" : {
                  "lat" : 42.280637,
                  "lng" : -83.8583431
               }
            }
         },
         "place_id" : "ChIJWTF0a2-xPIgR7OX8iYJ8mxU",
         "types" : [ "neighborhood", "political" ]
      },
      {
         "address_components" : [
            {
               "long_name" : "Ann Arbor",
               "short_name" : "Ann Arbor",
               "types" : [ "locality", "political" ]
            },
            {
               "long_name" : "Washtenaw County",
               "short_name" : "Washtenaw County",
               "types" : [ "administrative_area_level_2", "political" ]
            },
            {
               "long_name" : "Michigan",
               "short_name" : "MI",
               "types" : [ "administrative_area_level_1", "political" ]
            },
            {
               "long_name" : "United States",
               "short_name" : "US",
               "types" : [ "country", "political" ]
            }
         ],
         "formatted_address" : "Ann Arbor, MI, USA",
         "geometry" : {
            "bounds" : {
               "northeast" : {
                  "lat" : 42.3239728,
                  "lng" : -83.6758069
               },
               "southwest" : {
                  "lat" : 42.222668,
                  "lng" : -83.799572
               }
            },
            "location" : {
               "lat" : 42.2808256,
               "lng" : -83.7430378
            },
            "location_type" : "APPROXIMATE",
            "viewport" : {
               "northeast" : {
                  "lat" : 42.3239728,
                  "lng" : -83.6758069
               },
               "southwest" : {
                  "lat" : 42.222668,
                  "lng" : -83.799572
               }
            }
         },
         "place_id" : "ChIJMx9D1A2wPIgR4rXIhkb5Cds",
         "types" : [ "locality", "political" ]
      },
      {
         "address_components" : [
            {
               "long_name" : "48103",
               "short_name" : "48103",
               "types" : [ "postal_code" ]
            },
            {
               "long_name" : "Ann Arbor",
               "short_name" : "Ann Arbor",
               "types" : [ "locality", "political" ]
            },
            {
               "long_name" : "Washtenaw County",
               "short_name" : "Washtenaw County",
               "types" : [ "administrative_area_level_2", "political" ]
            },
            {
               "long_name" : "Michigan",
               "short_name" : "MI",
               "types" : [ "administrative_area_level_1", "political" ]
            },
            {
               "long_name" : "United States",
               "short_name" : "US",
               "types" : [ "country", "political" ]
            }
         ],
         "formatted_address" : "Ann Arbor, MI 48103, USA",
         "geometry" : {
            "bounds" : {
               "northeast" : {
                  "lat" : 42.349523,
                  "lng" : -83.73913
               },
               "southwest" : {
                  "lat" : 42.184368,
                  "lng" : -83.95517409999999
               }
            },
            "location" : {
               "lat" : 42.24758629999999,
               "lng" : -83.8260884
            },
            "location_type" : "APPROXIMATE",
            "viewport" : {
               "northeast" : {
                  "lat" : 42.349523,
                  "lng" : -83.73913
               },
               "southwest" : {
                  "lat" : 42.184368,
                  "lng" : -83.95517409999999
               }
            }
         },
         "place_id" : "ChIJn8MAZ82wPIgRhTXTbGY8Aic",
         "types" : [ "postal_code" ]
      },
      {
         "address_components" : [
            {
               "long_name" : "Ann Arbor, MI",
               "short_name" : "Ann Arbor, MI",
               "types" : [ "political" ]
            },
            {
               "long_name" : "Washtenaw County",
               "short_name" : "Washtenaw County",
               "types" : [ "administrative_area_level_2", "political" ]
            },
            {
               "long_name" : "Michigan",
               "short_name" : "MI",
               "types" : [ "administrative_area_level_1", "political" ]
            },
            {
               "long_name" : "United States",
               "short_name" : "US",
               "types" : [ "country", "political" ]
            }
         ],
         "formatted_address" : "Ann Arbor, MI, MI, USA",
         "geometry" : {
            "bounds" : {
               "northeast" : {
                  "lat" : 42.434936,
                  "lng" : -83.539394
               },
               "southwest" : {
                  "lat" : 42.072143,
                  "lng" : -84.133748
               }
            },
            "location" : {
               "lat" : 42.3076493,
               "lng" : -83.8473015
            },
            "location_type" : "APPROXIMATE",
            "viewport" : {
               "northeast" : {
                  "lat" : 42.434936,
                  "lng" : -83.539394
               },
               "southwest" : {
                  "lat" : 42.072143,
                  "lng" : -84.133748
               }
            }
         },
         "place_id" : "ChIJvxWmM8-wPIgRqNwtF0PSnv0",
         "types" : [ "political" ]
      },
      {
         "address_components" : [
            {
               "long_name" : "Washtenaw County",
               "short_name" : "Washtenaw County",
               "types" : [ "administrative_area_level_2", "political" ]
            },
            {
               "long_name" : "Michigan",
               "short_name" : "MI",
               "types" : [ "administrative_area_level_1", "political" ]
            },
            {
               "long_name" : "United States",
               "short_name" : "US",
               "types" : [ "country", "political" ]
            }
         ],
         "formatted_address" : "Washtenaw County, MI, USA",
         "geometry" : {
            "bounds" : {
               "northeast" : {
                  "lat" : 42.4351659,
                  "lng" : -83.539396
               },
               "southwest" : {
                  "lat" : 42.071577,
                  "lng" : -84.13407889999999
               }
            },
            "location" : {
               "lat" : 42.3076493,
               "lng" : -83.8473015
            },
            "location_type" : "APPROXIMATE",
            "viewport" : {
               "northeast" : {
                  "lat" : 42.4351659,
                  "lng" : -83.539396
               },
               "southwest" : {
                  "lat" : 42.071577,
                  "lng" : -84.13407889999999
               }
            }
         },
         "place_id" : "ChIJMx9D1A2wPIgRuLFVuZmuyW4",
         "types" : [ "administrative_area_level_2", "political" ]
      },
      {
         "address_components" : [
            {
               "long_name" : "Michigan",
               "short_name" : "MI",
               "types" : [ "administrative_area_level_1", "political" ]
            },
            {
               "long_name" : "United States",
               "short_name" : "US",
               "types" : [ "country", "political" ]
            }
         ],
         "formatted_address" : "Michigan, USA",
         "geometry" : {
            "bounds" : {
               "northeast" : {
                  "lat" : 48.3060628,
                  "lng" : -82.1229709
               },
               "southwest" : {
                  "lat" : 41.696118,
                  "lng" : -90.4181358
               }
            },
            "location" : {
               "lat" : 44.3148443,
               "lng" : -85.60236429999999
            },
            "location_type" : "APPROXIMATE",
            "viewport" : {
               "northeast" : {
                  "lat" : 48.3060628,
                  "lng" : -82.1229709
               },
               "southwest" : {
                  "lat" : 41.696118,
                  "lng" : -90.4181358
               }
            }
         },
         "place_id" : "ChIJEQTKxz2qTE0Rs8liellI3Zc",
         "types" : [ "administrative_area_level_1", "political" ]
      },
      {
         "address_components" : [
            {
               "long_name" : "United States",
               "short_name" : "US",
               "types" : [ "country", "political" ]
            }
         ],
         "formatted_address" : "United States",
         "geometry" : {
            "bounds" : {
               "northeast" : {
                  "lat" : 71.5388001,
                  "lng" : -66.885417
               },
               "southwest" : {
                  "lat" : 18.7763,
                  "lng" : 170.5957
               }
            },
            "location" : {
               "lat" : 37.09024,
               "lng" : -95.712891
            },
            "location_type" : "APPROXIMATE",
            "viewport" : {
               "northeast" : {
                  "lat" : 49.38,
                  "lng" : -66.94
               },
               "southwest" : {
                  "lat" : 25.82,
                  "lng" : -124.39
               }
            }
         },
         "place_id" : "ChIJCzYy5IS16lQRQrfeQ5K5Oxw",
         "types" : [ "country", "political" ]
      }
   ],
   "status" : "OK"
}
